nom,lon,lat
Espace Plumier,5.631362999999999,43.369174
Maison publique de quartier de Trinquetaille,4.620781,43.680674
Maison des Associations,5.562679,43.453776
La Fabrique,4.845673,43.781562
Maison publique de quartier de la Roquette,4.623406,43.676916
Ludothèque Ludo-minots,5.391022,43.301539
Asile 404,5.3829972,43.2927223
Espace Seniors Les Cigales,5.154877,43.63555
Place de la République à Alleins,5.162212,43.704371
Ludothèque de la M.P.T. Corderie,5.369491,43.290384
Maison de Quartier de la Tourtelle,5.563594,43.2904
"Maison publique de quartier, centre social Les Tuiles Bleues de Mas Thibert",4.729948,43.557665
Centre Culturel Georges Sand,5.265538,43.450861
La Halle,5.478951,43.4590366
Complexe sportif et culturel,5.446332,43.402413
Dock?s Café,5.376694,43.298149
Jeu Pyramide,5.03933,43.408857
OPT : Scène de spectacle et de promotion lyrique Euro-Méditerrannéenne,5.4090285,43.2422876
Ecole Municipale de Musique et de Danse,5.248844,43.447473
Donation Mario Prassinos,4.83106,43.786018
Espace Jeunes de Vernègues,5.168362,43.685119
Espace Clémént David,5.6025435,43.3490279
Pier Lobo - Cours de Chant,5.0472405,43.4093309
Maison publique de quartier de Griffeuille,4.6307373046875,43.675197312175534
Espace Jeunes d'Alleins,5.155935,43.705298
"Centre de Loisirs ""Les Tout Chatou""",5.207176208496094,43.69347662544489
"Centre de loisirs ""les Petits Curieux""",5.207262,43.693632
Stèle,5.4463322,43.4024129
Cour du Collège,5.4463322,43.4024129
Tour de l'Horloge,5.4463322,43.4024129
Auditorium du Collège,5.4463322,43.4024129
Chapelle Saint Germain,5.434833,43.429668
Massif de l'Etoile,5.4463322,43.4024129
Sports Loisirs Culture Martigues ( SLCM ),5.048001,43.399254
Espace Baron de Chabert,4.74663,43.899547
Centre d'Arts Plastiques Fernand Léger,4.978282,43.406948
M.J.C,4.852141,43.882294
Boulodrome Jean Ramella,5.034508,43.550669
Maison des Jeunes et de la Culture,5.4847161,43.5983272
Ateliers du Festival,5.470333099365234,43.578867513963445
AtelieRnational,5.377049,43.3109277
Ecole municipale de musique,5.48555,43.458541
Maison du Combattant,5.3700682,43.2904377
Cynergie Hall,5.3841739,43.3003013
Vidéodrome,5.383739,43.294632
M2K13 - Marseille 2013 Le Off,5.3870421,43.3020944
Emouvance,5.3728766,43.299445
Editions Parenthèses,5.383006,43.293774
Shivas 97,5.416323999999999,43.27761900000001
Ostau dau Pais Marselhés,5.3839296,43.2950598
Tempo de la Cadenelle,5.3815805,43.2691849
Lollipop Music Store,5.383249,43.2912377
Foyer La Belle Vie,5.1487533,43.6322233
Atelier de Musique,5.161234,43.703713
Les Ateliers de l'Image,5.365898,43.296881
La Maison Numérique,5.413803,43.526258
Hangar de l'Abbé Dureau,5.150187,43.632344
Maison Maréchal Juin,5.433789,43.526651
Salle Léon Masson,5.446332,43.402413
Maison de la Francophonie,5.4010025,43.3065333
Espace Sénac,5.383438,43.297874
Le Percolateur,5.3937514,43.3020756
Maison Jacques Méli,5.04693,43.383976
Square Marius Magnan,5.4463322,43.4024129
La Mer Veilleuse,5.3839666,43.2918934
SAREV,5.384388,43.294803
Mund Art,5.3695805,43.3030218
Espace Michel Blaso,5.164636,43.38296
Centre culturel,5.569604,43.259273
Ecole municipale d'arts plastiques,5.218332,43.421274
Conservatoire de Musique Intercommunal Michel Petrucciani,4.992739,43.499091
Maison Eugénie Cotton,5.054983,43.408685
Auditoruim du Collège d'Eyguières,5.0078451,43.7100748
Espace Frédéric Mistral,5.581997,43.642784
Centre culturel Louis Aragon,5.366254,43.398759
Studio Meyes,5.602633,43.181658
Villa Khariessa,5.0700797,43.3985749
Mairie de Simiane Collongue,5.4463322,43.4024129
Bateau de pirate manège,4.85404348808288,43.88301891579659
Espace Jeunesse,5.448657,43.532623
CIAM - Centre International des Arts en Mouvement,5.393481,43.526016
Centre social du Château de l'Horloge,5.418552,43.527704
Zim Zam - Cirque pour tous,5.3837947,43.294558
"Maison publique de quartier, centre social Mas Clairanne",4.634334,43.691858
Bourse du travail,4.62696,43.674778
Maison Jeanne Pistoun - Canto Perdrix,5.048344,43.420173
Centre socio culturel Marie Louise Davin de Puyricard,5.417579,43.599787
Centre social les Amandiers - Adis,5.412472,43.532282
Espace Les Floralies,5.435384,43.515873
Centre socio culturel Aix Nord,5.445972,43.541331
Ecole de Musique de Vernègues,5.170198,43.685526
Le Comoedia,5.014758,43.584217
Ludothèque Le Cerf Volant,5.420731,43.582109
Salle polyvalente Frédéric Mistral,5.076484,43.748667
RedPlexus,5.3904579,43.3095508
"Il y'a les bons, les mauvais et le reste",5.218332,43.4212739
Les Troubadours,5.1883328,43.42979450000001
Salle Baugnies-de-Saint-Marceaux,5.602306,43.18351
Cité de la jeunesse,5.6668306,43.3628502
Le Comptoir de la Victorine,5.3808683,43.3116714
Centre socioculturel,5.03798,43.834378
Salle de l'Amitié des Paluds,4.902065,43.877232
L'intervalle,5.3862758,43.5032027
OU Lieu d'exposition pour l'Art Actuel,5.3901938,43.3029771
Salle des fêtes,5.509247,43.6296338
Kid et Sens,5.440166,43.52421
Foyer rural de St Cannat,5.2987208,43.620774
Maison du Projet - Fondation Luma,4.6328393,43.6748187
Ecole Régionale d'art Dramatique,5.226038,43.400807
Salle d'honneur du Château,5.685688,43.445693
Exposition Fernandel,5.170804,43.336427
Scène flottante du Canal saint - Sébastien (Festival de Martigues),5.052166,43.405765
Salle des associations,5.261712,43.653995
Fondation Camargo,5.531548,43.214541
Ludothèque Martingale,4.637093999999999,43.6936845
FreeSpace,4.624197,43.6766184
Ludothèque Martingale,4.6243751,43.6017739
Centre socio culturel Jean Paul Coste,5.456961,43.51367
Laure Autrement,4.627625399999999,43.678411
Animation culture sport,5.422568,43.580241
Relais Culturel,4.423736,43.450019
Maison de Lavéra,5.026957,43.385873
Maison de l'écriture et de la lecture,5.445453,43.316065
Maison de Notre Dame des Marins,5.047928,43.413187
Maison de Boudème,5.056945,43.395311
"Maison publique de quartier, centre social Christian Chèze",4.617054,43.668345
Salle de l'Espacier,4.904151,43.876304
Arènes Municipales,4.658654,43.807557
Arènes de Barbentane,4.747895,43.8986159
Espace Dany,5.177845962149036,43.72877603101906
Salle des Expositions,4.901919364929199,43.87534467823937
Maison de Paradis St Roch,5.03933,43.408857
Centre socio culturel,5.640655,43.44666
Place Pisavis,5.150244,43.631313
Maison de Jonquières,5.056639,43.399381
Université Martégale du Temps Libre (UMTL),5.055569,43.405437
Maison pour Tous,4.995824,43.500087
Salle des Arts,5.110217,43.332113
Salle des fêtes de Vernègues,5.190138,43.687608
Association du Méjan,4.624933,43.678602
Centre culturel Marcel Pagnol,4.914324,43.474548
Maison de la danse,4.99562,43.5002
Ludothèque,4.994271,43.500426
Conservatoire de Musique à rayonnement communal,5.217181,43.417228
Annexe de la bibliothèque,5.560919,43.4537819
Centre Culturel Communal de la Bouilladisse (CCCB),5.5958732,43.3951977
Maison de Croix Sainte,5.029123,43.410931
Café Musique Espace Léo Ferré,5.3776554,43.3157352
La Citerne,4.794014,43.743429
Pôle Culturel - Moulin de Saint Claude,5.6668306,43.3628502
MJC - Maison des jeunes et de la culture Jacques Prévert,5.440634,43.528334
Ludothèque Pile et Face,5.1008776,43.6506712
Centre d'Animation Municipal,5.232339,43.489508
Maison de Saint Julien - Saint Pierre,5.095267,43.362078
Féminin pluriel provence,5.3547034,43.2839895
Salle Jean et Pons Dedieu,4.629195,43.678951
Le cri du port,5.3808683,43.3116714
Alpilium,43.788681,4.835827
Conservatoire de Danse à rayonnement communal,5.2252386,43.4128985
Salle George Brassens,5.2675657,43.6534483
Espace Fernandel,5.151892,43.332156
LE SALON - BOUTIQUE EPHEMERE,5.096852999999999,43.6407715
Centre socioculturel,5.578302,43.383536
La Maison du Chant,5.3901128,43.3026162
Salle Peller,5.151959,43.630317
Centre d'Animation Pierre Miallet,4.938059,43.592026
Eglise Saint Pierre,5.4463322,43.4024129
Centre social et culturel La Grande Bastide,5.471864,43.516504
La Garenne,5.632659,43.44749
Maison de Pratiques Artistiques,5.5441498,43.2870499
Le Village du Festival de Martigues,5.046967,43.405659
Salle Polyvalente,5.170756,43.480422
Ballet Preljocaj - Centre chorégraphique national,5.440297,43.525363
Cité du Livre,5.439367,43.524884
Salle du Bois de l'Aune,5.414659,43.526195
La Mareschale - Maison de quartier d'Encagnane,5.432315,43.525371
Trébillane,5.355491,43.460894
"3bisF, lieu d'arts contemporains",5.43849,43.522785
Espace Tino Rossi,5.311969,43.410028
Salle des Vertus,5.673083,43.523177
La Capelane,5.2961357,43.4199498
Ludothèque la Marelle,5.625379,43.483033
IFAC,5.639774,43.446752
Salle Emilien Ventre,5.620417,43.480165
Seconde nature,5.443036,43.52857
Centre franco allemand de Provence,5.445675,43.530718
Centre social la Provence,5.434266,43.52001
Centre Darius Milhaud - Centre culturel juif,5.44276,43.524636
Centre la Baume les Aix,5.424007,43.502864
Institut de l'Image,5.439367,43.524884
"Conservatoire de musique, de danse et d'art dramatique Darius Milhaud",5.439554,43.525511
La Fonderie - Café Musiques,5.452264,43.531026
La Maison de l'Espagne,5.450864,43.530234
Le Jardin des Arts,5.365878,43.39835
Maison des Jeunes et de la Culture (MJC),5.059916,43.399568
Salle d'exposition de l'Office de Tourisme,5.347382,43.664044
"Conservatoire National de Région ""Pierre Barbizet"" - Salles de concert",5.3826917,43.2956189
Centre Culturel de l'UGAB,5.3999974,43.2579418
"Centre d'Etude, de Restauration et de Conservation des ?uvres ( CERCO )",4.639313,43.67328
Salle de danse-Quartier Vauban,4.795513,43.399104
CMA des Calanques,5.357749,43.2332897
Maison de quartier du Redon,5.4266427,43.2454224
Bastide de Fontvieille,5.492409,43.323231
Maison de Quartier Joseph Bonino,5.509247,43.3609248
Approches Cultures et Territoires,5.3668007,43.3008985
Maison de Quartier le Château Blanc,5.563594,43.2904
Centre de Ressources Vidéo des quartiers,5.3423992,43.3562929
Centre Culturel Indien Tagore,5.44048,43.277191
Les Carboni,5.368798,43.299287
Edition P,5.3900479,43.3030328
Espace Marcel Pagnol,5.164491,43.383669
Atelier du patrimoine de la ville de Marseille,5.3772,43.314249
Espace musical culturel et artistique des Accates,5.4921632,43.2967583
Fonds communal d?art contemporain,5.3879095,43.3079729
Centre socio-culturel du Roy d'Espagne,5.3848054,43.2405516
Centre culturel Mirabeau,5.346066,43.348942
Espace Sport et Culture Albert Giraldi,5.635228,43.296591
Espace Jeunes Stephan Auzie et Point Information Jeunes,5.65597,43.359205
Pôle Multimédia Belle de Mai,5.387345,43.30758
Maison de Quartier Bernard Palissy,5.574687,43.289151
La citerne du Panier,5.3696376,43.2996323
Diagonales 61,5.3821768,43.300771
Le Lounge,5.38524,43.293417
Les Demoiselles du 5,5.3797072,43.2945476
FNAC - Le Forum,5.37595,43.296731
Rivages,5.367907,43.299369
Urban Gallery,5.388114,43.29895
Maison de quartier Dugommier,5.3809554,43.2984077
Les grands terrains / Laboratoire artistique,5.3836529,43.2946554
Salle Municipale,5.0354062,43.5478126
Espace musical Hypérion,5.3968366,43.3026536
Théâtre de Verdure,5.034508,43.550669
"Salle Jean Paul Varet ""La Récampado""",5.0417160987854,43.5416113751036
La salle gueule,5.3815864,43.2903337
Centre municipal de ressources Madon,5.3995904,43.2952023
Salle Polyvalente - Centre d'animation des Lices,5.368338,43.289392
Centre de Design de Marseille Provence (CDMP) - Espace d'exposition Galerie Montgrand,5.365858,43.289767
Maison de quartier l'Olivette,5.563594,43.2904
Centre socioculturel Baussenque,5.366858,43.299141
Espace socioculturel,5.7005065,43.2776095
Manifesten,5.3854991,43.2968366
La ruche coworking,5.3866438,43.30281069999999
Centre Culturel / Alsh,5.602543,43.349028
Gyptis - Belle de Mai,5.384281,43.312746
L'R de la mer - Compagnie Théâtre de la Mer,5.37094,43.3026837
Nomad Café,5.370436,43.318368
Creuset des Arts,5.408322,43.310381
Maison pour tous,5.5592355,43.4563757
"Credd'o, Oustau di Petit",4.768513,43.853119
"La Baleine qui dit ""Vagues""",5.383615,43.293601
Centre culturel,5.245114,43.719481
Salle des Fêtes,4.6298194,43.6754123
L'Affranchi,5.4882679,43.2848916
Magic Mirrors,4.986935,43.504955
Espace 233,4.994445,43.500379
Centre Aéré,5.146185,43.390426
Le Bastidon,5.164822,43.703161
Centre socioculturel,4.9506747,43.8032981
Maison de Carro,5.042912,43.333718
Bastide Marin,5.6168837,43.1987645
Friche Belle de Mai,5.390431,43.309453
Montévidéo,5.37744,43.286427
Espace Saint-Exupéry,5.231302,43.420938
KLAP Maison pour la Danse Kelemenis & Cie,5.3781335,43.3122776
Studio Fotokino,5.3828302,43.2990783
Centre culturel provençal de Château-Gombert : Roudelet Felibren,5.345833,43.365423
Point de Bascule,5.377488,43.286183
Centre Culturel Hugues Long,5.70054,43.2759583
Grains de Lumière - La Traverse,5.3658933,43.2969947
La Meson,5.387818,43.300398
Polly Maggoo,5.3821768,43.300771
Espace Culturel Busserine,5.38872,43.3426011
Le Polygone Etoilé - Film flamme,5.370981,43.305147
Arthémuse,5.3821356,43.2946187
Dar Lamifa,5.3828099,43.2929006
Horizontes del Sur,5.391889,43.303065
Centre Méditerranéen de la Communication Audiovisuelle CMCA,5.3821186,43.2979156
L'Eolienne,5.3788093,43.2955427
Centre Marcel Pagnol,5.1536327,43.5695806
Cité des Arts de la Rue,5.3650176,43.3513284
Centre Recherche Européen des Arts du Cirque CREAC,5.362701,43.333191
Gare Franche - Cosmos Kolej,5.353886,43.371318
Maison de quartier Yves Montand,5.510198,43.352286
Maison de quartier Logis Neuf,5.486608,43.361637
Maison de quartier Gérard Philippe,5.510198,43.352286
Centre Fleg,5.37778,43.287293
Friche du Panier,5.3669423,43.3012536
Espace Van Gogh,4.625886,43.675573
GMEM,5.389186,43.279536
Artothèque Antonin Artaud,5.428459,43.339739
Espace Culturel et Sportif Robert Ollive,5.478888,43.352036
Daki Ling le jardin des muses,5.380438,43.294642
Hang'art,5.400961,43.306446
Institut Culturel Italien,5.390931,43.288963
Pôle des Arts Visuels,5.3130825,43.3608449
"Cité de la Musique de Marseille - L'Auditorium, Le Salon, La Médiathèque",5.3755,43.301608
Centre International de Poésie Marseille,5.368016,43.300082
PIC - Pôle Instrumental Contemporain - Marseille,5.3066688,43.3639821
Maison de l'artisanat et des métiers d'art,5.373652,43.292658
"Potentielles, le magasin alternatif - Espace culturel",5.3923928,43.3014184
Escale Saint-Michel (L'),5.572579,43.292326
Portail Coucou - Café Musiques,5.099637,43.642122
Maison des Jeunes et de la Culture - MJC,5.572756,43.292415
Zinc,5.390458,43.309551
Centre municipal d'animation Tempo Sylvabelle,5.376878,43.288745
Cours des Héros,5.4463322,43.4024129
CRDP : Centre régional de documentation pédagogique,5.380558,43.301004
Cinéma Gérard Philipe,4.796854,43.393086
IMFP (Institut Musical Formation Professionnelle),5.083333,43.639687
Espace Georges Jouvin (salle des fêtes),5.504295229911804,43.693267174202795
Pôle culturel de l'Usine Electrique,5.4836413,43.3380244
Espace culturel Gérard Philipe,4.789873,43.441382
Centre de Culture & Information sur le Monde Arabe,5.388429,43.299516
Station Alexandre,5.383003,43.324597
Espace François Mitterrand,5.4826066,43.334622
Salle des fêtes,5.1778946,43.7293557
Cercle des Arts et Métiers,5.095418,43.641097
Salle Paul Eluard,5.602306,43.18351
Centre de Développement Culturel,4.81348,43.63849
Conservatoire Français du Cheval Lipizzan,5.300517,43.725739
Compagnie de danse Geneviève Sorin,5.381041,43.317649
Atelier Vis à Vis,5.386115,43.309648
Cinémémoire,5.3894925,43.3033341
Centre culturel Frais Vallon,5.4253757,43.3649321
Cinémathèque de Marseille,5.3805899,43.3007026
CIRVA,5.370384,43.302832
La boîte à musique,5.2643461,43.6546664
Cola Production / Africa Fête,5.3904579,43.3095508
Maison de Quartier Le Lavoir du Pin Vert,5.5699,43.300916
Le Kawawateï,5.3868205,43.2915097
L'Atelier des arts,5.407967,43.267141
Films Femmes Méditerranée,5.3822795,43.2887214
FRAC (Fonds régional d'art contemporain),5.367505400000027,43.305706
Centre socio-culturel,5.66052,43.629047
Place des Anciens Combattants,5.6563119,43.6415919
La Buzine Maison des Cinématographies de la Méditerranée,5.499918,43.2951205
Centre socioculturel de Cazan,5.190138,43.687608
Salle des Fêtes,4.753785,43.901762
Salle Agora Alpilles,4.80463,43.724064
Forum des Jeunes et de la Culture,5.16702,43.48836
